{"type":"FeatureCollection","features":[{"type":"Feature","geometry":{"type":"Point","coordinates":[30.52282469151563,50.45286085648142]},"properties":{"name":"Київ"}},{"type":"Feature","geometry":{"type":"Point","coordinates":[34.551159,49.59269]},"properties":{"name":"Полтава"}},{"type":"Feature","geometry":{"type":"Point","coordinates":[31.293167,51.503653]},"properties":{"name":"Чернігів"}},{"type":"Feature","geometry":{"type":"Point","coordinates":[34.80566,50.910561]},"properties":{"name":"Суми"}},{"type":"Feature","geometry":{"type":"Point","coordinates":[36.208309,49.98967]},"properties":{"name":"Харків"}},{"type":"Feature","geometry":{"type":"Point","coordinates":[34.9833333,48.45]},"properties":{"name":"Дніпро"}},{"type":"Feature","geometry":{"type":"Point","coordinates":[39.355659,48.573269]},"properties":{"name":"Луганськ"}},{"type":"Feature","geometry":{"type":"Point","coordinates":[37.8052778,48.0027778]},"properties":{"name":"Донецьк"}},{"type":"Feature","geometry":{"type":"Point","coordinates":[35.157139,47.853748]},"properties":{"name":"Запоріжжя"}},{"type":"Feature","geometry":{"type":"Point","coordinates":[32.629424,46.653368]},"properties":{"name":"Херсон"}},{"type":"Feature","geometry":{"type":"Point","coordinates":[34.1041667,44.9480556]},"properties":{"name":"Сімферополь"}},{"type":"Feature","geometry":{"type":"Point","coordinates":[32,46.9666667]},"properties":{"name":"Миколаїв"}},{"type":"Feature","geometry":{"type":"Point","coordinates":[30.7333333,46.4666667]},"properties":{"name":"Одеса"}},{"type":"Feature","geometry":{"type":"Point","coordinates":[32.264801,48.508389]},"properties":{"name":"Кропивницький"}},{"type":"Feature","geometry":{"type":"Point","coordinates":[32.0666667,49.4333333]},"properties":{"name":"Черкаси"}},{"type":"Feature","geometry":{"type":"Point","coordinates":[28.4833333,49.2333333]},"properties":{"name":"Вінниця"}},{"type":"Feature","geometry":{"type":"Point","coordinates":[28.676248,50.259749]},"properties":{"name":"Житомир"}},{"type":"Feature","geometry":{"type":"Point","coordinates":[26.25,50.6166667]},"properties":{"name":"Рівне"}},{"type":"Feature","geometry":{"type":"Point","coordinates":[25.3358333,50.75]},"properties":{"name":"Луцьк"}},{"type":"Feature","geometry":{"type":"Point","coordinates":[25.603979,49.551361]},"properties":{"name":"Тернопіль"}},{"type":"Feature","geometry":{"type":"Point","coordinates":[25.9333333,48.3]},"properties":{"name":"Чернівці"}},{"type":"Feature","geometry":{"type":"Point","coordinates":[24.0166667,49.85]},"properties":{"name":"Львів"}},{"type":"Feature","geometry":{"type":"Point","coordinates":[24.7166667,48.9166667]},"properties":{"name":"Івано-Франківськ"}},{"type":"Feature","geometry":{"type":"Point","coordinates":[22.3,48.6166667]},"properties":{"name":"Ужгород"}},{"type":"Feature","geometry":{"type":"Point","coordinates":[27,49.4166667]},"properties":{"name":"Хмельницький"}}]}